[
  {
    "station_id": "Paris-Sud-A",
    "latitude": 45.7939,
    "longitude": 3.9991,
    "elevation": 231.6
  },
  {
    "station_id": "Lyon-B",
    "latitude": 46.9046,
    "longitude": 2.2587,
    "elevation": 880.1
  },
  {
    "station_id": "Marseille-C",
    "latitude": 45.0295,
    "longitude": 1.314,
    "elevation": 567.3
  },
  {
    "station_id": "Toulouse-D",
    "latitude": 46.0389,
    "longitude": 0.7282,
    "elevation": 1554.5
  },
  {
    "station_id": "Nantes-E",
    "latitude": 48.3694,
    "longitude": 2.0625,
    "elevation": 1283.7
  },
  {
    "station_id": "Bordeaux-F",
    "latitude": 48.1461,
    "longitude": 2.3347,
    "elevation": 292.7
  },
  {
    "station_id": "Reims-G",
    "latitude": 47.7098,
    "longitude": 3.7688,
    "elevation": 1248.8
  }
]