[
  {
    "station_id": "Pittsburgh-A",
    "latitude": 37.0429,
    "longitude": -83.7014,
    "elevation": 812.8
  },
  {
    "station_id": "Columbus-B",
    "latitude": 39.5549,
    "longitude": -80.852,
    "elevation": 100.3
  },
  {
    "station_id": "Cincinnati-C",
    "latitude": 42.0477,
    "longitude": -80.2939,
    "elevation": 1209.3
  },
  {
    "station_id": "Cleveland-D",
    "latitude": 40.0102,
    "longitude": -80.4267,
    "elevation": 676.3
  },
  {
    "station_id": "Detroit-E",
    "latitude": 39.3675,
    "longitude": -85.4578,
    "elevation": 423.6
  },
  {
    "station_id": "Buffalo-F",
    "latitude": 40.5187,
    "longitude": -80.6542,
    "elevation": 314.4
  },
  {
    "station_id": "Pittsburgh-G",
    "latitude": 35.8589,
    "longitude": -81.4275,
    "elevation": 1249.0
  }
]