[
  {
    "station_id": "Paris-Sud-A",
    "latitude": 47.4201,
    "longitude": 2.9787,
    "elevation": 1649.2
  },
  {
    "station_id": "Lyon-B",
    "latitude": 43.1425,
    "longitude": 4.8485,
    "elevation": 564.6
  },
  {
    "station_id": "Marseille-C",
    "latitude": 45.6811,
    "longitude": 4.8946,
    "elevation": 260.4
  },
  {
    "station_id": "Toulouse-D",
    "latitude": 47.0156,
    "longitude": 0.5398,
    "elevation": 1247.2
  },
  {
    "station_id": "Nantes-E",
    "latitude": 49.3984,
    "longitude": 1.2605,
    "elevation": 1692.6
  },
  {
    "station_id": "Bordeaux-F",
    "latitude": 46.1467,
    "longitude": 2.3812,
    "elevation": 306.7
  }
]