[
  {
    "station_id": "Stockholm-A",
    "latitude": 59.9786,
    "longitude": 15.2892,
    "elevation": 406.7
  },
  {
    "station_id": "Oslo-B",
    "latitude": 61.6647,
    "longitude": 15.0504,
    "elevation": 1691.8
  },
  {
    "station_id": "Helsinki-C",
    "latitude": 57.7559,
    "longitude": 16.5161,
    "elevation": 748.7
  },
  {
    "station_id": "G\u00f6teborg-D",
    "latitude": 59.1149,
    "longitude": 13.2236,
    "elevation": 1179.0
  },
  {
    "station_id": "Tampere-E",
    "latitude": 59.3101,
    "longitude": 14.359,
    "elevation": 1109.8
  },
  {
    "station_id": "Stockholm-F",
    "latitude": 58.8244,
    "longitude": 18.2463,
    "elevation": 452.7
  },
  {
    "station_id": "Oslo-G",
    "latitude": 58.0353,
    "longitude": 13.761,
    "elevation": 1473.8
  }
]