[
  {
    "station_id": "Zwiesel-A",
    "latitude": 47.8923,
    "longitude": 12.6076,
    "elevation": 1258.0
  },
  {
    "station_id": "M\u00fcnchen-B",
    "latitude": 48.9218,
    "longitude": 11.2761,
    "elevation": 354.3
  },
  {
    "station_id": "Innsbruck-C",
    "latitude": 47.9986,
    "longitude": 14.2462,
    "elevation": 328.7
  },
  {
    "station_id": "Salzburg-D",
    "latitude": 48.369,
    "longitude": 11.9786,
    "elevation": 1710.8
  },
  {
    "station_id": "Linz-E",
    "latitude": 47.2178,
    "longitude": 10.25,
    "elevation": 1131.9
  },
  {
    "station_id": "Praha-F",
    "latitude": 48.1199,
    "longitude": 13.2457,
    "elevation": 1406.0
  }
]