[
  {
    "station_id": "Oxford-A",
    "latitude": 52.5588,
    "longitude": -0.7493,
    "elevation": 1545.6
  },
  {
    "station_id": "Cambridge-B",
    "latitude": 52.2927,
    "longitude": -1.3535,
    "elevation": 847.2
  },
  {
    "station_id": "Bristol-C",
    "latitude": 50.8152,
    "longitude": -1.8953,
    "elevation": 917.5
  },
  {
    "station_id": "Birmingham-D",
    "latitude": 51.3453,
    "longitude": -2.642,
    "elevation": 637.1
  },
  {
    "station_id": "Leeds-E",
    "latitude": 51.8223,
    "longitude": -1.3678,
    "elevation": 649.2
  },
  {
    "station_id": "Manchester-F",
    "latitude": 53.0707,
    "longitude": -1.1464,
    "elevation": 713.8
  },
  {
    "station_id": "Oxford-G",
    "latitude": 50.9063,
    "longitude": -1.1895,
    "elevation": 1457.3
  }
]