[
  {
    "station_id": "Zwiesel-A",
    "latitude": 47.9273,
    "longitude": 9.8868,
    "elevation": 1215.8
  },
  {
    "station_id": "M\u00fcnchen-B",
    "latitude": 46.7827,
    "longitude": 10.5385,
    "elevation": 747.2
  },
  {
    "station_id": "Innsbruck-C",
    "latitude": 48.3697,
    "longitude": 11.663,
    "elevation": 439.0
  },
  {
    "station_id": "Salzburg-D",
    "latitude": 48.1112,
    "longitude": 13.3172,
    "elevation": 1555.4
  },
  {
    "station_id": "Linz-E",
    "latitude": 47.3984,
    "longitude": 10.5346,
    "elevation": 1419.6
  },
  {
    "station_id": "Praha-F",
    "latitude": 48.1249,
    "longitude": 12.0387,
    "elevation": 1205.0
  }
]