[
  {
    "station_id": "Paris-Sud-A",
    "latitude": 45.2464,
    "longitude": 3.7651,
    "elevation": 1496.0
  },
  {
    "station_id": "Lyon-B",
    "latitude": 45.1026,
    "longitude": 3.2969,
    "elevation": 1715.3
  },
  {
    "station_id": "Marseille-C",
    "latitude": 46.9977,
    "longitude": 0.9466,
    "elevation": 543.4
  },
  {
    "station_id": "Toulouse-D",
    "latitude": 46.7099,
    "longitude": 0.2991,
    "elevation": 1081.1
  },
  {
    "station_id": "Nantes-E",
    "latitude": 44.8542,
    "longitude": 2.464,
    "elevation": 880.9
  },
  {
    "station_id": "Bordeaux-F",
    "latitude": 47.2268,
    "longitude": 1.3943,
    "elevation": 1702.6
  },
  {
    "station_id": "Reims-G",
    "latitude": 47.9245,
    "longitude": 2.478,
    "elevation": 1012.4
  }
]