[
  {
    "station_id": "Oxford-A",
    "latitude": 51.657,
    "longitude": -0.5722,
    "elevation": 1122.6
  },
  {
    "station_id": "Cambridge-B",
    "latitude": 50.2931,
    "longitude": -1.2172,
    "elevation": 1010.8
  },
  {
    "station_id": "Bristol-C",
    "latitude": 49.6343,
    "longitude": -2.2119,
    "elevation": 1758.9
  },
  {
    "station_id": "Birmingham-D",
    "latitude": 51.503,
    "longitude": -2.8687,
    "elevation": 682.9
  },
  {
    "station_id": "Leeds-E",
    "latitude": 52.7647,
    "longitude": -1.0974,
    "elevation": 272.5
  },
  {
    "station_id": "Manchester-F",
    "latitude": 51.4546,
    "longitude": -1.8765,
    "elevation": 884.3
  }
]