[
  {
    "station_id": "Oxford-A",
    "latitude": 51.0617,
    "longitude": -1.9141,
    "elevation": 1796.7
  },
  {
    "station_id": "Cambridge-B",
    "latitude": 52.4103,
    "longitude": -1.6942,
    "elevation": 630.7
  },
  {
    "station_id": "Bristol-C",
    "latitude": 53.6269,
    "longitude": -1.7171,
    "elevation": 1467.8
  },
  {
    "station_id": "Birmingham-D",
    "latitude": 52.22,
    "longitude": -1.2439,
    "elevation": 1798.7
  },
  {
    "station_id": "Leeds-E",
    "latitude": 52.5726,
    "longitude": -0.6449,
    "elevation": 1792.2
  }
]