[
  {
    "station_id": "Zwiesel-A",
    "latitude": 47.1546,
    "longitude": 10.6964,
    "elevation": 752.5
  },
  {
    "station_id": "M\u00fcnchen-B",
    "latitude": 47.9145,
    "longitude": 12.9434,
    "elevation": 768.6
  },
  {
    "station_id": "Innsbruck-C",
    "latitude": 49.5061,
    "longitude": 11.7292,
    "elevation": 364.6
  },
  {
    "station_id": "Salzburg-D",
    "latitude": 49.6595,
    "longitude": 11.644,
    "elevation": 1485.9
  },
  {
    "station_id": "Linz-E",
    "latitude": 48.3269,
    "longitude": 12.2859,
    "elevation": 1163.4
  }
]