[
  {
    "station_id": "Zwiesel-A",
    "latitude": 48.6049,
    "longitude": 11.3412,
    "elevation": 857.5
  },
  {
    "station_id": "M\u00fcnchen-B",
    "latitude": 48.3591,
    "longitude": 12.0809,
    "elevation": 1610.8
  },
  {
    "station_id": "Innsbruck-C",
    "latitude": 48.1454,
    "longitude": 9.5475,
    "elevation": 293.0
  },
  {
    "station_id": "Salzburg-D",
    "latitude": 49.1562,
    "longitude": 11.4524,
    "elevation": 941.1
  },
  {
    "station_id": "Linz-E",
    "latitude": 49.6852,
    "longitude": 12.6081,
    "elevation": 1414.8
  },
  {
    "station_id": "Praha-F",
    "latitude": 48.4647,
    "longitude": 11.7865,
    "elevation": 1222.3
  },
  {
    "station_id": "Wien-G",
    "latitude": 48.8809,
    "longitude": 12.3957,
    "elevation": 1177.3
  }
]