[
  {
    "station_id": "Zwiesel-A",
    "latitude": 48.559,
    "longitude": 9.3396,
    "elevation": 1406.0
  },
  {
    "station_id": "M\u00fcnchen-B",
    "latitude": 48.5832,
    "longitude": 11.8763,
    "elevation": 1266.5
  },
  {
    "station_id": "Innsbruck-C",
    "latitude": 46.2515,
    "longitude": 12.7038,
    "elevation": 1793.9
  },
  {
    "station_id": "Salzburg-D",
    "latitude": 49.8399,
    "longitude": 11.8018,
    "elevation": 1573.3
  },
  {
    "station_id": "Linz-E",
    "latitude": 47.7297,
    "longitude": 13.1826,
    "elevation": 924.7
  }
]