[
  {
    "station_id": "Zwiesel-A",
    "latitude": 48.1943,
    "longitude": 10.2204,
    "elevation": 441.7
  },
  {
    "station_id": "M\u00fcnchen-B",
    "latitude": 49.4965,
    "longitude": 11.6625,
    "elevation": 1387.7
  },
  {
    "station_id": "Innsbruck-C",
    "latitude": 48.6572,
    "longitude": 11.7322,
    "elevation": 642.3
  },
  {
    "station_id": "Salzburg-D",
    "latitude": 49.2357,
    "longitude": 11.4814,
    "elevation": 1390.0
  },
  {
    "station_id": "Linz-E",
    "latitude": 47.9776,
    "longitude": 12.8506,
    "elevation": 1263.8
  }
]